[
  {
    "id": 9,
    "title": "jnjnkjnk",
    "type": "apartment",
    "tx": "sale",
    "area": "دابوق",
    "price": 50000,
    "lat": 31.721159,
    "lon": 35.991211,
    "phone": "0789540656",
    "images": [],
    "space": 2626,
    "rooms": 2626,
    "bath": 2662,
    "floor": 6622,
    "elevator": "yes",
    "garage": "yes",
    "kitchen": "yes",
    "balcony": "yes"
  },
  {
    "id": 1756334525551,
    "title": "",
    "type": "",
    "tx": "sale",
    "area": "",
    "price": 0,
    "lat": 0,
    "lon": 0,
    "phone": "",
    "images": [],
    "space": 0
  },
  {
    "id": 10,
    "title": "شقة للبيع",
    "type": "land",
    "tx": "sale",
    "area": "تلاع العلي",
    "price": 50000,
    "lat": 31.693995,
    "lon": 35.894051,
    "phone": "0789540656",
    "images": [],
    "createdAt": 1756334805647,
    "land_id": "520",
    "mudiriyah": "20",
    "village": "525",
    "hawd": "25",
    "space": 252,
    "organization": "residential",
    "divided": "yes",
    "front": "12",
    "streets_count": 2,
    "streets_width": "16",
    "resOptions": [
      "C"
    ],
    "services": [
      "water",
      "electricity",
      "sewage"
    ]
  },
  {
    "id": 120,
    "title": "ارض للبيع",
    "type": "land",
    "tx": "sale",
    "area": "",
    "price": 500000,
    "lat": 31.715026,
    "lon": 35.79689,
    "phone": "2552",
    "images": [],
    "createdAt": 1756335889403,
    "land_id": "",
    "mudiriyah": "",
    "village": "",
    "hawd": "",
    "space": 0,
    "organization": "",
    "divided": "",
    "front": "",
    "streets_count": 0,
    "streets_width": "",
    "resOptions": [
      "D"
    ],
    "services": [
      "sewage"
    ]
  },
  {
    "id": 99,
    "title": "شقة للبيع",
    "type": "land",
    "tx": "sale",
    "area": "ماركا",
    "price": 50000,
    "lat": 31.71853,
    "lon": 35.990868,
    "phone": "0789540656",
    "images": [],
    "createdAt": 1756336909908,
    "land_id": "1950",
    "mudiriyah": "شمال عمان",
    "village": "الين",
    "hawd": "ىتؤيؤ",
    "space": 500,
    "organization": "residential",
    "divided": "yes",
    "front": "15",
    "streets_count": 20,
    "streets_width": "30",
    "resOptions": [
      "A"
    ],
    "services": [
      "water",
      "electricity",
      "sewage"
    ]
  },
  {
    "id": 93,
    "title": "ةيلاةيس",
    "type": "land",
    "tx": "sale",
    "area": "السابع",
    "price": 49000,
    "lat": 31.771959,
    "lon": 35.967865,
    "phone": "0789540656",
    "images": [],
    "createdAt": 1756337168011,
    "land_id": "",
    "mudiriyah": "",
    "village": "",
    "hawd": "",
    "space": 0,
    "organization": "agricultural",
    "divided": "yes",
    "front": "18",
    "streets_count": 2,
    "streets_width": "16",
    "resOptions": [],
    "services": [
      "water",
      "electricity",
      "sewage"
    ]
  },
  {
    "id": 1756341334639,
    "title": "",
    "type": "",
    "tx": "sale",
    "area": "",
    "price": 0,
    "lat": 0,
    "lon": 0,
    "phone": "",
    "images": [],
    "createdAt": 1756341334639
  },
  {
    "id": 100,
    "title": "نةنةىلات",
    "type": "",
    "tx": "sale",
    "area": "",
    "price": 50000,
    "lat": 31.943714,
    "lon": 35.91362,
    "phone": "",
    "images": [],
    "createdAt": 1756344559034
  },
  {
    "id": 21,
    "title": "vfvf",
    "type": "",
    "tx": "sale",
    "area": "",
    "price": 220,
    "lat": 31.779547,
    "lon": 35.942459,
    "phone": "",
    "images": [],
    "createdAt": 1756344941171
  },
  {
    "id": 160,
    "title": "ابلب",
    "type": "land",
    "tx": "sale",
    "area": "جبل عمّان",
    "price": 50000,
    "lat": 31.92157,
    "lon": 36.188278,
    "phone": "0789540656",
    "images": [],
    "createdAt": 1756346084768,
    "land_id": "55",
    "mudiriyah": "5151",
    "village": "5151",
    "hawd": "51515",
    "space": 1515,
    "organization": "residential",
    "divided": "yes",
    "front": "16",
    "streets_count": 2,
    "streets_width": "20",
    "resOptions": [
      "A"
    ],
    "services": [
      "water",
      "electricity",
      "sewage"
    ]
  },
  {
    "id": 130,
    "title": "ايسلاتاسي",
    "type": "apartment",
    "tx": "sale",
    "area": "جبل عمّان",
    "price": 50066,
    "lat": 31.80581,
    "lon": 35.59227,
    "phone": "0785623153",
    "images": [],
    "createdAt": 1756347154211,
    "space": 515,
    "rooms": 5151,
    "bath": 5151,
    "living": 15,
    "floor": 1515,
    "garage": "yes",
    "elevator": "yes",
    "kitchen": "yes",
    "balcony": "yes"
  },
  {
    "id": 1111,
    "title": "ةيسرىن",
    "type": "apartment",
    "tx": "sale",
    "area": "جبل عمّان",
    "price": 5000,
    "lat": 31.739555,
    "lon": 36.199951,
    "phone": "222255515",
    "images": [],
    "createdAt": 1756348017798,
    "space": 26626,
    "rooms": 366,
    "bath": 62626,
    "living": 2662,
    "floor": 266,
    "garage": "yes",
    "elevator": "yes",
    "kitchen": "yes",
    "balcony": "yes"
  },
  {
    "id": 190,
    "title": "m mn mn",
    "type": "",
    "tx": "sale",
    "area": "",
    "price": 26262,
    "lat": 31.873768,
    "lon": 36.215401,
    "phone": "",
    "images": [],
    "createdAt": 1756348615418
  },
  {
    "id": 1555,
    "title": "2626",
    "type": "shop",
    "tx": "sale",
    "area": "البيادر",
    "price": 2626,
    "lat": 31.830607,
    "lon": 36.364746,
    "phone": "20626262",
    "images": [
      "1756351935950-popup erroe.png"
    ],
    "createdAt": 1756351935940
  },
  {
    "id": 56262,
    "title": "66666656",
    "type": "shop",
    "tx": "sale",
    "area": "",
    "price": 512111,
    "lat": 31.653966,
    "lon": 36.016273,
    "phone": "",
    "images": [],
    "createdAt": 1756352159577
  },
  {
    "id": 555555,
    "title": "kkjfdgnd",
    "type": "shop",
    "tx": "sale",
    "area": "",
    "price": 5000,
    "lat": 31.734591,
    "lon": 36.106567,
    "phone": "",
    "images": [],
    "createdAt": 1756352263035
  },
  {
    "id": 96969696,
    "title": "njknkj",
    "type": "shop",
    "tx": "sale",
    "area": "اللويبدة",
    "price": 5005032,
    "lat": 31.643152,
    "lon": 35.981598,
    "phone": "",
    "images": [
      "1756352311548-popup erroe.png"
    ],
    "createdAt": 1756352311543
  },
  {
    "id": 600,
    "title": "asdd",
    "type": "shop",
    "tx": "sale",
    "area": "ناعور",
    "price": 56560,
    "lat": 31.678219,
    "lon": 35.732346,
    "phone": "0789562532",
    "images": [
      "http://localhost:3000/images/600/1756376155822.png"
    ],
    "createdAt": 1756376155808
  },
  {
    "id": 1991,
    "title": "الالا",
    "type": "land",
    "tx": "sale",
    "area": "ماركا",
    "price": 45000,
    "lat": 31.627952,
    "lon": 35.824013,
    "phone": "0776707439",
    "images": [
      "http://localhost:3000/images/1991/1756384483248-download.jpg",
      "http://localhost:3000/images/1991/1756384483249-images.jpg",
      "http://localhost:3000/images/1991/1756384483249-popup erroe.png"
    ],
    "createdAt": 1756384483238,
    "land_id": "515",
    "mudiriyah": "25",
    "village": "25",
    "hawd": "5151",
    "space": 51,
    "organization": "residential",
    "divided": "yes",
    "front": "626",
    "streets_count": 5555,
    "streets_width": "6666",
    "resOptions": [
      "A"
    ],
    "services": [
      "water",
      "electricity",
      "sewage"
    ]
  },
  {
    "id": 1980,
    "title": "الالا",
    "type": "apartment",
    "tx": "rent",
    "area": "الشميساني",
    "price": 53000,
    "lat": 31.943423,
    "lon": 36.35582,
    "phone": "0776707439",
    "images": [
      "http://localhost:3000/images/1980/1756384593875-1.jpg",
      "http://localhost:3000/images/1980/1756384593879-12.jpg",
      "http://localhost:3000/images/1980/1756384593879-13.jpg"
    ],
    "createdAt": 1756384593865,
    "space": 5615,
    "rooms": 5151,
    "bath": 55,
    "living": 515,
    "floor": 5151,
    "garage": "yes",
    "elevator": "yes",
    "kitchen": "yes",
    "balcony": "yes"
  },
  {
    "id": 25252,
    "title": "",
    "type": "",
    "tx": "sale",
    "area": "",
    "price": 0,
    "lat": 0,
    "lon": 0,
    "phone": "",
    "images": [],
    "createdAt": 1756404467941
  }
]